City_ID,City,Country,Lat,Lng,Max Temp,Humidity,Cloudiness,Wind Speed,Description
0,Atuona,PF,-9.8,-139.0333,78.4,74,76,15.73,broken clouds
1,Bredasdorp,ZA,-34.5322,20.0403,55.26,74,100,2.66,overcast clouds
2,Tuktoyaktuk,CA,69.4541,-133.0374,21.2,86,75,4.61,broken clouds
3,Georgetown,MY,5.4112,100.3354,85.95,81,20,0.0,few clouds
4,Aklavik,CA,68.2191,-135.0107,10.92,80,49,6.71,scattered clouds
5,Ponta Do Sol,PT,32.6667,-17.1,68.72,77,22,7.92,few clouds
6,Hithadhoo,MV,-0.6,73.0833,81.32,75,11,14.07,few clouds
7,Mataura,NZ,-46.1927,168.8643,58.48,71,95,1.7,overcast clouds
8,Dalby,AU,-27.1833,151.2667,78.31,15,0,7.43,clear sky
9,Wamba,NG,8.9333,8.6,70.32,36,61,3.83,broken clouds
10,Jamestown,US,42.097,-79.2353,29.01,72,100,14.97,overcast clouds
11,Jamsa,FI,61.8642,25.19,30.15,92,58,4.65,broken clouds
12,Lebu,CL,-37.6167,-73.65,56.39,95,99,6.98,overcast clouds
13,Ust-Nera,RU,64.5667,143.2,-21.14,98,69,5.12,broken clouds
14,Waipawa,NZ,-41.4122,175.5153,61.88,88,72,12.48,broken clouds
15,Chokurdakh,RU,70.6333,147.9167,-12.73,99,100,4.47,overcast clouds
16,Khonsa,IN,27.0167,95.5667,67.71,44,0,2.64,clear sky
17,Busselton,AU,-33.65,115.3333,55.0,58,90,20.69,overcast clouds
18,Cayenne,GF,4.9333,-52.3333,77.04,88,0,0.0,clear sky
19,Kapaa,US,22.0752,-159.319,77.32,80,20,12.66,few clouds
20,Grindavik,IS,63.8424,-22.4338,44.55,87,75,9.22,broken clouds
21,Nikolskoye,RU,59.7035,30.7861,26.49,85,11,6.38,few clouds
22,Mahebourg,MU,-20.4081,57.7,75.25,77,20,3.44,few clouds
23,Bethel,US,41.3712,-73.414,37.49,62,0,5.75,clear sky
24,Puerto Princesa,PH,9.7392,118.7353,84.18,79,75,6.91,broken clouds
25,Upernavik,GL,72.7868,-56.1549,10.27,71,56,4.36,broken clouds
26,Bria,CF,6.5423,21.9863,67.89,59,94,1.3,overcast clouds
27,Dafeng,CN,23.4517,108.5881,76.46,78,100,6.76,overcast clouds
28,Lorengau,PG,-2.0226,147.2712,85.86,64,98,6.31,overcast clouds
29,Araouane,ML,18.9048,-3.5265,67.57,14,73,8.25,broken clouds
30,Kirensk,RU,57.7853,108.1119,15.24,89,100,7.78,light snow
31,Mar Del Plata,AR,-38.0023,-57.5575,60.94,89,0,17.0,clear sky
32,Puerto Ayora,EC,-0.7393,-90.3518,69.55,89,8,5.99,clear sky
33,Zinder,NE,13.8072,8.9881,66.97,22,20,9.15,few clouds
34,Caravelas,BR,-17.7125,-39.2481,72.46,92,100,11.83,overcast clouds
35,Gorontalo,ID,0.5412,123.0595,86.85,67,100,4.74,overcast clouds
36,Ushuaia,AR,-54.8,-68.3,51.46,37,20,14.97,few clouds
37,Sinnamary,GF,5.3833,-52.95,78.55,83,91,10.4,overcast clouds
38,Tiksi,RU,71.6872,128.8694,-2.45,90,100,4.81,overcast clouds
39,Saint-Philippe,RE,-21.3585,55.7679,74.79,69,28,5.28,scattered clouds
40,Tasiilaq,GL,65.6145,-37.6368,37.56,80,100,6.64,light rain
41,Barrow,US,71.2906,-156.7887,28.42,86,0,12.66,clear sky
42,Rikitea,PF,-23.1203,-134.9692,70.2,89,100,8.59,heavy intensity rain
43,Chuy,UY,-33.6971,-53.4616,63.46,66,62,3.31,broken clouds
44,Dogondoutchi,NE,13.6393,4.0287,72.99,23,98,8.55,overcast clouds
45,Vaini,TO,-21.2,-175.2,78.1,72,8,6.98,clear sky
46,Pevek,RU,69.7008,170.3133,-6.7,98,100,5.66,overcast clouds
47,Avarua,CK,-21.2078,-159.775,77.05,83,75,14.97,broken clouds
48,Punta Arenas,CL,-53.15,-70.9167,46.51,66,40,8.05,scattered clouds
49,Sartell,US,45.6216,-94.2069,21.33,81,100,14.97,overcast clouds
50,Lockhart,US,28.6194,-81.4426,55.49,78,0,5.75,clear sky
51,Nome,US,64.5011,-165.4064,35.67,93,100,12.66,light rain
52,Mandera,KE,3.9366,41.867,78.35,71,0,8.52,clear sky
53,Castro,BR,-24.7911,-50.0119,49.77,67,0,4.18,clear sky
54,Richards Bay,ZA,-28.783,32.0377,70.5,96,100,4.25,light rain
55,Kamenka,RU,51.3223,42.7678,36.97,100,100,8.19,light rain
56,Nantucket,US,41.2835,-70.0995,41.14,65,20,26.04,few clouds
57,Mvangue,CM,2.9667,11.5167,65.19,99,87,1.23,overcast clouds
58,Hambantota,LK,6.1241,81.1185,79.48,76,100,3.11,overcast clouds
59,San Borja,BO,-14.8167,-66.85,77.43,59,100,2.77,overcast clouds
60,Orange,US,33.7,-117.7675,65.39,38,75,5.75,broken clouds
61,Hobart,AU,-42.8794,147.3294,67.23,63,20,9.22,few clouds
62,Kuhdasht,IR,33.535,47.6061,47.68,85,4,1.28,clear sky
63,Pangnirtung,CA,66.1451,-65.7125,-5.3,92,40,6.29,scattered clouds
64,Port-Gentil,GA,-0.7193,8.7815,76.77,85,96,7.72,light rain
65,Layou,VC,13.2,-61.2667,77.76,79,21,13.0,few clouds
66,Hasaki,JP,35.7333,140.8333,63.21,55,87,9.6,overcast clouds
67,Wahiawa,US,21.5028,-158.0236,79.12,74,40,11.5,scattered clouds
68,Dikson,RU,73.5069,80.5464,-0.81,94,100,24.79,light snow
69,Opuwo,NA,-18.0607,13.84,69.53,51,10,3.27,clear sky
70,Portland,US,45.5234,-122.6762,44.82,52,0,25.32,clear sky
71,Constitucion,CL,-35.3333,-72.4167,56.08,92,97,11.3,overcast clouds
72,Zhigalovo,RU,54.8097,105.1578,19.81,81,100,7.25,overcast clouds
73,Kodiak,US,57.79,-152.4072,42.31,93,100,9.22,overcast clouds
74,Port Lincoln,AU,-34.7333,135.8667,68.68,53,100,21.63,overcast clouds
75,Mobaye,CF,4.319,21.1786,70.7,90,88,2.21,overcast clouds
76,Fairbanks,US,64.8378,-147.7164,15.6,87,0,0.0,clear sky
77,Port Elizabeth,ZA,-33.918,25.5701,63.1,88,100,4.61,overcast clouds
78,Qaanaaq,GL,77.484,-69.3632,-15.81,70,4,7.58,clear sky
79,Bluff,NZ,-46.6,168.3333,58.8,86,95,13.04,overcast clouds
80,Sitka,US,57.0531,-135.33,39.09,81,0,0.0,clear sky
81,Sumbawanga,TZ,-7.9667,31.6167,57.88,91,94,2.42,light rain
82,Bengkulu,ID,-3.8004,102.2655,82.36,71,91,9.62,overcast clouds
83,Druzhba,UA,52.0428,33.9453,23.49,82,100,9.71,overcast clouds
84,Dingle,PH,10.9995,122.6711,77.94,93,100,10.02,moderate rain
85,Awjilah,LY,29.1081,21.2869,63.19,32,0,12.8,clear sky
86,Cancun,MX,21.1743,-86.8466,78.73,78,40,11.5,light rain
87,Souillac,MU,-20.5167,57.5167,68.38,77,20,3.44,few clouds
88,Provideniya,RU,64.3833,-173.3,32.36,86,100,13.42,fog
89,Cockburn Town,TC,21.4612,-71.1419,81.45,76,5,18.28,clear sky
90,Paamiut,GL,61.994,-49.6678,18.81,61,100,2.51,overcast clouds
91,Dunedin,NZ,-45.8742,170.5036,55.8,84,94,1.99,overcast clouds
92,Narasannapeta,IN,18.4167,84.05,73.06,55,96,7.11,overcast clouds
93,Warmbad,NA,-28.45,18.7333,58.8,37,3,6.29,clear sky
94,Road Town,VG,18.4167,-64.6167,80.69,69,2,20.18,clear sky
95,Albany,US,42.6001,-73.9662,34.57,70,63,1.01,broken clouds
96,Hilo,US,19.7297,-155.09,79.25,88,20,9.22,few clouds
97,Nong Bua,TH,15.8646,100.5858,86.9,73,98,1.83,overcast clouds
98,Rudbar,AF,30.15,62.6,63.52,21,93,5.95,overcast clouds
99,Butaritari,KI,3.0707,172.7902,80.96,75,69,13.0,broken clouds
100,Anadyr,RU,64.75,177.4833,12.7,79,20,13.42,few clouds
101,Port Alfred,ZA,-33.5906,26.891,63.18,94,100,1.01,overcast clouds
102,Severobaykalsk,RU,55.65,109.3167,22.06,61,98,9.98,overcast clouds
103,Puerto Narino,CO,-3.7703,-70.3831,72.01,99,59,2.37,broken clouds
104,Astana,KZ,51.1801,71.446,17.55,86,100,2.24,overcast clouds
105,Rubizhne,UA,49.0123,38.3797,35.44,88,100,14.29,overcast clouds
106,Hermanus,ZA,-34.4187,19.2345,52.81,71,93,4.16,overcast clouds
107,Sao Filipe,CV,14.8961,-24.4956,78.55,75,80,3.74,broken clouds
108,Alekseyevka,RU,50.6309,38.6903,27.37,97,100,14.5,light snow
109,Esperance,AU,-33.8667,121.9,63.95,44,54,10.67,broken clouds
110,Yellowknife,CA,62.456,-114.3525,19.92,68,40,15.01,scattered clouds
111,Ribeira Grande,PT,38.5167,-28.7,58.77,67,15,7.0,few clouds
112,Klyuchi,RU,52.2667,79.1667,16.18,64,25,5.01,scattered clouds
113,Leningradskiy,RU,69.3833,178.4167,6.71,95,100,15.48,light snow
114,Airai,TL,-8.9266,125.4092,78.24,47,23,1.52,few clouds
115,Gambela,ET,8.25,34.5833,70.23,80,4,3.85,clear sky
116,Sola,VU,-13.8833,167.55,84.87,74,5,0.0,clear sky
117,Atasu,KZ,48.6814,71.6433,12.7,92,86,6.58,overcast clouds
118,Port Blair,IN,11.6667,92.75,80.64,83,40,2.3,scattered clouds
119,Svetlogorsk,BY,52.6333,29.7333,25.7,85,97,6.91,overcast clouds
120,Alice Springs,AU,-23.7,133.8833,83.75,45,100,12.66,overcast clouds
121,Morros,BR,-9.4467,-46.3003,74.48,76,97,3.47,overcast clouds
122,Kavieng,PG,-2.5744,150.7967,85.24,63,93,10.87,overcast clouds
123,Adelanto,US,34.5828,-117.4092,56.14,35,84,0.54,broken clouds
124,Thompson,CA,55.7435,-97.8558,9.97,89,100,10.07,overcast clouds
125,Mananara,MG,-16.1667,49.7667,74.14,91,100,2.57,overcast clouds
126,Hobyo,SO,5.3505,48.5268,80.51,72,99,12.8,overcast clouds
127,New Norfolk,AU,-42.7826,147.0587,66.88,47,32,1.99,scattered clouds
128,Cabo San Lucas,MX,22.8909,-109.9124,71.91,78,0,3.44,clear sky
129,Marsa Matruh,EG,31.3525,27.2453,64.54,42,0,16.11,clear sky
130,Vestmanna,FO,62.1564,-7.1664,45.52,81,100,28.77,overcast clouds
131,Seddon,AU,-37.8068,144.8916,77.02,50,20,12.66,few clouds
132,Khorixas,NA,-20.3667,14.9667,69.39,31,84,6.73,broken clouds
133,Cape Town,ZA,-33.9258,18.4232,58.26,76,20,5.75,few clouds
134,Durban,ZA,-29.8579,31.0292,71.02,91,100,4.43,overcast clouds
135,Berlevag,NO,70.8578,29.0864,37.2,87,100,5.75,overcast clouds
136,Gizo,SB,-8.103,156.8419,84.13,70,87,2.64,light rain
137,Victoria,HK,22.2855,114.1577,82.04,76,0,8.01,clear sky
138,Ampanihy,MG,-24.7,44.75,68.68,85,0,4.59,clear sky
139,Bratsk,RU,56.1325,101.6142,16.29,86,97,10.27,light snow
140,Bialogard,PL,54.007,15.9875,29.93,73,4,6.91,clear sky
141,Manta,EC,-0.95,-80.7333,71.38,83,75,10.36,broken clouds
142,East London,ZA,-33.0153,27.9116,64.69,90,100,1.54,overcast clouds
143,Salalah,OM,17.0151,54.0924,75.25,70,13,1.97,few clouds
144,Asyut,EG,27.181,31.1837,60.24,56,0,4.43,clear sky
145,Tampakan,PH,6.4442,124.9264,88.09,75,100,2.04,overcast clouds
146,Olafsvik,IS,64.8945,-23.7142,44.15,87,97,13.18,overcast clouds
147,Ilulissat,GL,69.2167,-51.1,21.22,86,100,4.61,light snow
148,San Cristobal,VE,7.7669,-72.225,69.98,96,100,2.3,overcast clouds
149,Orbetello,IT,42.4408,11.2196,59.02,86,32,10.8,scattered clouds
150,Nanortalik,GL,60.1432,-45.2371,22.82,72,100,3.42,overcast clouds
151,Otradnoye,RU,59.7775,30.8181,26.65,84,14,6.46,few clouds
152,Senanga,ZM,-16.1167,23.2667,72.03,56,37,5.17,scattered clouds
153,San Patricio,US,28.017,-97.5169,54.84,58,100,6.33,overcast clouds
154,Arraial Do Cabo,BR,-22.9661,-42.0278,70.75,74,0,5.93,clear sky
155,Adrar,MR,20.5022,-10.0711,66.78,16,0,9.06,clear sky
156,Saldanha,ZA,-33.0117,17.9442,51.85,72,78,14.38,broken clouds
157,Turukhansk,RU,65.8167,87.9833,6.69,88,100,24.61,light snow
158,Carnarvon,AU,-24.8667,113.6333,68.47,54,90,20.76,overcast clouds
159,Acarau,BR,-2.8856,-40.12,78.84,79,25,12.59,scattered clouds
160,Los Llanos De Aridane,ES,28.6585,-17.9182,64.15,78,0,5.99,clear sky
161,Carros,FR,43.7894,7.184,58.71,62,0,18.41,clear sky
162,Clyde River,CA,70.4692,-68.5914,-3.77,84,100,12.66,overcast clouds
163,Nouadhibou,MR,20.931,-17.0347,73.38,35,0,16.11,clear sky
164,Pacifica,US,37.6138,-122.4869,56.8,77,20,14.97,few clouds
165,Severo-Kurilsk,RU,50.6789,156.125,34.93,68,100,15.48,overcast clouds
166,Kangaatsiaq,GL,68.3065,-53.4641,20.37,84,99,6.42,overcast clouds
167,Edd,ER,13.9297,41.6925,81.77,35,1,14.52,clear sky
168,Itarema,BR,-2.9248,-39.9167,78.94,78,40,12.55,scattered clouds
169,Gwadar,PK,25.1216,62.3254,76.89,72,9,7.61,clear sky
170,Matara,LK,5.9485,80.5353,80.28,76,83,0.96,broken clouds
171,Varhaug,NO,58.6147,5.6457,40.89,67,35,34.05,scattered clouds
172,Alpena,US,45.0617,-83.4327,30.45,91,40,6.91,scattered clouds
173,Sao Felix Do Xingu,BR,-6.6447,-51.995,72.68,84,82,1.32,broken clouds
174,Khatanga,RU,71.9667,102.5,-21.73,89,99,9.06,overcast clouds
175,Peniche,PT,39.3558,-9.3811,60.12,82,90,20.65,overcast clouds
176,Te Anau,NZ,-45.4167,167.7167,61.02,73,99,3.74,light rain
177,Kiunga,PG,-6.1219,141.2906,90.37,54,99,3.69,overcast clouds
178,Ivanivka,UA,46.7208,34.553,40.89,80,100,11.95,overcast clouds
179,Shenjiamen,CN,29.9576,122.298,65.8,91,100,7.74,overcast clouds
180,Bageshwar,IN,29.85,79.7667,56.44,47,0,0.63,clear sky
181,Freeport,US,40.6576,-73.5832,40.17,61,40,17.27,scattered clouds
182,Luwuk,ID,-0.9516,122.7875,82.99,78,100,0.87,overcast clouds
183,Sorong,ID,-0.8833,131.25,84.09,73,100,4.54,overcast clouds
184,Forestville,US,38.8451,-76.875,37.38,59,0,8.05,clear sky
185,Shache,CN,38.4167,77.2406,40.73,20,39,2.17,scattered clouds
186,Iqaluit,CA,63.7506,-68.5145,4.73,77,100,11.5,light snow
187,Amambai,BR,-23.1042,-55.2258,63.72,72,2,4.79,clear sky
188,Obersiggenthal,CH,47.4875,8.2965,49.6,93,75,8.05,broken clouds
189,Klaksvik,FO,62.2266,-6.589,47.32,83,90,36.31,light rain
190,Cherskiy,RU,68.75,161.3,-26.99,100,100,5.19,overcast clouds
191,Bubaque,GW,11.2833,-15.8333,83.07,74,99,9.64,overcast clouds
192,Oksfjord,NO,70.2396,22.3479,39.38,44,83,9.13,broken clouds
193,Longhua,CN,23.6137,114.1919,85.93,54,4,2.15,clear sky
194,Westport,US,41.1415,-73.3579,39.81,66,0,8.05,clear sky
195,Lethem,GY,3.3803,-59.7968,81.12,68,99,4.03,moderate rain
196,Torbay,CA,47.6666,-52.7314,44.76,85,100,28.77,overcast clouds
197,Maningrida,AU,-12.0667,134.2667,92.01,51,100,9.37,overcast clouds
198,Krasnyy Chikoy,RU,50.3643,108.7512,23.9,65,100,6.58,overcast clouds
199,Tijucas,BR,-27.2414,-48.6336,68.05,84,60,4.38,broken clouds
200,Luderitz,NA,-26.6481,15.1594,57.6,64,42,13.47,scattered clouds
201,Luba,GQ,3.4568,8.5547,78.42,86,100,6.04,light rain
202,Solnechnyy,RU,50.7214,136.6319,27.34,60,100,2.28,overcast clouds
203,Fortuna,US,40.5982,-124.1573,47.32,95,100,4.61,overcast clouds
204,Comodoro Rivadavia,AR,-45.8667,-67.5,69.66,40,0,9.22,clear sky
205,Witu,KE,-2.3889,40.4382,75.36,90,97,0.89,overcast clouds
206,Yaan,NG,7.3833,8.5667,73.58,78,71,2.39,broken clouds
207,Iwanai,JP,42.9744,140.5089,46.15,65,100,4.27,moderate rain
208,Gourcy,BF,13.2167,-2.35,71.22,16,4,8.34,clear sky
209,Sault Sainte Marie,CA,46.5168,-84.3333,25.09,68,100,4.61,overcast clouds
210,Seydi,TM,39.4816,62.9137,53.29,47,100,6.13,overcast clouds
211,Mehamn,NO,71.0357,27.8492,35.55,93,100,5.75,overcast clouds
212,Katsuura,JP,35.1333,140.3,61.38,65,90,11.59,overcast clouds
213,Kulhudhuffushi,MV,6.6221,73.07,81.97,71,7,4.21,clear sky
214,Khuzhir,RU,53.1939,107.3397,24.39,59,70,14.05,broken clouds
215,Ouro Preto,BR,-20.3948,-43.5052,57.94,98,53,2.98,broken clouds
216,Nemuro,JP,43.3236,145.575,41.58,54,37,11.05,scattered clouds
217,Skibbereen,IE,51.55,-9.2667,47.1,75,19,14.32,few clouds
218,Gaoual,GN,11.75,-13.2,72.09,39,100,1.66,overcast clouds
219,Necochea,AR,-38.5473,-58.7368,56.64,82,77,11.16,light rain
220,Noumea,NC,-22.2763,166.4572,84.18,78,78,12.03,broken clouds
221,Flinders,AU,-34.5833,150.8552,66.25,57,36,12.08,scattered clouds
222,Udachnyy,RU,66.4167,112.4,-29.51,99,21,4.07,few clouds
223,Henties Bay,NA,-22.116,14.2845,59.29,91,95,4.14,overcast clouds
224,Quatre Cocos,MU,-20.2078,57.7625,75.09,60,0,4.79,clear sky
225,Saskylakh,RU,71.9167,114.0833,-36.94,100,24,4.09,few clouds
226,Kedougou,SN,12.5579,-12.1743,72.18,60,0,0.0,clear sky
227,Pulandian,CN,39.3953,121.9669,54.66,61,95,8.77,overcast clouds
228,Xuanhua,CN,40.6103,115.0447,46.54,42,100,7.56,overcast clouds
229,Ulagan,RU,50.6321,87.9563,10.67,86,100,2.01,overcast clouds
230,Hualmay,PE,-11.0964,-77.6139,63.86,85,60,7.18,broken clouds
231,Mecca,SA,21.4267,39.8261,75.92,72,0,2.75,clear sky
232,Aitape,PG,-3.1374,142.3475,84.97,70,100,4.7,overcast clouds
233,Waingapu,ID,-9.6567,120.2641,84.02,73,96,2.73,overcast clouds
234,Springbok,ZA,-29.6643,17.8865,47.17,54,13,1.72,few clouds
235,Taft,IR,31.7471,54.2088,51.75,82,100,6.91,light rain
236,Redmond,US,47.674,-122.1215,45.88,53,0,1.01,clear sky
237,Kindu,CD,-2.95,25.95,67.46,100,100,1.9,moderate rain
238,Srednekolymsk,RU,67.45,153.6833,-22.65,95,85,10.47,overcast clouds
239,Pueblo Nuevo,MX,23.3833,-105.3833,50.29,64,38,5.19,scattered clouds
240,Lensk,RU,60.7253,114.9278,-0.38,92,100,2.8,overcast clouds
241,Qasigiannguit,GL,68.8193,-51.1922,21.45,93,100,3.71,overcast clouds
242,Pontianak,ID,-0.0333,109.3333,84.18,84,40,5.75,scattered clouds
243,Bira,RU,49.0,132.4667,31.19,71,93,1.99,overcast clouds
244,Kaiwaka,NZ,-36.1667,174.45,67.89,80,19,7.07,few clouds
245,Kita,ML,13.0349,-9.4895,71.38,25,96,5.06,overcast clouds
246,Verkhoturye,RU,58.8627,60.8054,5.34,84,5,6.35,clear sky
247,Puerto Baquerizo Moreno,EC,-0.9,-89.6,69.96,81,37,10.87,scattered clouds
248,Kambar,PK,27.5868,68.001,70.16,38,0,3.36,clear sky
249,Naze,JP,28.3667,129.4833,72.52,82,54,2.48,broken clouds
250,Emet,TR,39.343,29.2585,48.36,82,83,7.45,broken clouds
251,Cidreira,BR,-30.1811,-50.2056,66.72,83,32,9.35,scattered clouds
252,Kudahuvadhoo,MV,2.6708,72.8944,81.84,75,100,17.76,overcast clouds
253,Fos-Sur-Mer,FR,43.4377,4.9446,55.31,87,0,11.5,clear sky
254,Southbury,US,41.4815,-73.2132,36.99,62,0,6.91,clear sky
255,Jeremie,HT,18.65,-74.1167,78.62,81,73,3.11,broken clouds
256,Magistralnyy,RU,56.1725,107.4458,19.47,70,90,8.79,overcast clouds
257,Vinukonda,IN,16.05,79.75,72.16,65,60,4.45,broken clouds
258,Amarante,BR,-6.2411,-42.8547,78.66,58,33,1.68,scattered clouds
259,Ternate,ID,0.8,127.4,85.44,70,40,5.59,scattered clouds
260,Avera,US,33.194,-82.5271,36.91,50,6,6.69,clear sky
261,Coihaique,CL,-45.5752,-72.0662,52.41,100,100,2.3,moderate rain
262,Beringovskiy,RU,63.05,179.3167,26.15,94,99,3.04,light snow
263,Lavrentiya,RU,65.5833,-171.0,33.76,89,100,20.13,overcast clouds
264,Killybegs,IE,54.6333,-8.45,48.72,76,100,17.58,overcast clouds
265,Hofn,IS,64.2539,-15.2082,45.59,95,100,12.64,overcast clouds
266,Menongue,AO,-14.6585,17.691,62.55,84,7,4.16,clear sky
267,Kieta,PG,-6.2167,155.6333,81.84,79,98,3.29,moderate rain
268,Deputatskiy,RU,69.3,139.9,-26.41,98,19,2.3,few clouds
269,Mubi,NG,10.2676,13.2644,66.29,37,29,2.62,scattered clouds
270,Gisborne,NZ,-38.6533,178.0042,64.44,92,91,4.7,overcast clouds
271,Mount Isa,AU,-20.7333,139.5,94.77,16,1,6.91,clear sky
272,Laguna,US,38.421,-121.4238,54.79,70,0,0.0,clear sky
273,Xuddur,SO,4.1213,43.8894,69.89,92,2,10.8,clear sky
274,Faanui,PF,-16.4833,-151.75,78.93,78,16,6.58,moderate rain
275,Bialystok,PL,53.1333,23.15,26.98,90,97,5.99,overcast clouds
276,Rincon,US,32.296,-81.2354,47.86,82,40,4.61,scattered clouds
277,Roma,US,43.2128,-75.4557,33.82,86,100,3.44,overcast clouds
278,Muroto,JP,33.2833,134.15,63.45,55,0,9.8,clear sky
279,Velingrad,BG,42.0272,23.9957,51.94,88,4,5.82,clear sky
280,Trenggalek,ID,-8.05,111.7167,81.36,74,100,2.64,overcast clouds
281,Kaitangata,NZ,-46.2817,169.8464,59.04,72,87,8.79,overcast clouds
282,Longyearbyen,SJ,78.2186,15.6401,24.64,93,100,4.61,overcast clouds
283,Vardo,NO,70.3705,31.1107,39.18,65,100,2.3,overcast clouds
284,Lianzhou,CN,24.7811,112.3825,77.95,74,88,0.69,overcast clouds
285,Aanekoski,FI,62.6946,25.818,28.47,100,31,2.44,scattered clouds
286,Tura,IN,25.5198,90.2201,71.73,64,2,3.51,clear sky
287,Emporia,US,38.4039,-96.1817,32.2,51,100,5.75,overcast clouds
288,Winneba,GH,5.3511,-0.6231,77.23,82,87,3.56,overcast clouds
289,Arman,RU,59.7,150.1667,-1.57,79,6,7.85,clear sky
290,Consolacion Del Sur,CU,22.5047,-83.5136,70.45,83,14,8.37,few clouds
291,Quito,EC,-0.2299,-78.5249,49.15,89,100,2.01,overcast clouds
292,Norman Wells,CA,65.282,-126.8329,9.5,79,54,3.0,broken clouds
293,Ware,GB,51.8126,-0.0283,48.67,88,75,12.66,broken clouds
294,Stromness,GB,58.965,-3.296,46.36,87,100,23.0,light rain
295,Takoradi,GH,4.8845,-1.7554,77.68,83,95,5.03,overcast clouds
296,Agde,FR,43.3108,3.4758,55.26,97,0,2.3,clear sky
297,Saint-Louis,SN,16.3333,-15.0,81.25,18,19,9.01,few clouds
298,Buin,CL,-33.7333,-70.75,72.73,62,5,1.88,clear sky
299,Bambous Virieux,MU,-20.3428,57.7575,76.21,77,20,3.44,few clouds
300,Lumeje,AO,-11.55,20.7833,64.54,93,60,3.27,light rain
301,Kununurra,AU,-15.7667,128.7333,96.78,41,26,10.36,scattered clouds
302,Nata,PA,8.3333,-80.5167,75.92,92,100,1.25,moderate rain
303,Sal Rei,CV,16.1833,-22.9167,77.7,83,19,12.37,few clouds
304,Madaoua,NE,14.073,5.96,69.42,19,71,9.37,broken clouds
305,Touros,BR,-5.1989,-35.4608,78.01,74,12,13.6,few clouds
306,Gdov,RU,58.7406,27.8122,26.42,84,71,11.39,broken clouds
307,Bam,IR,29.106,58.357,66.13,40,100,5.7,overcast clouds
308,Yarmouth,US,41.7057,-70.2286,40.01,56,0,25.99,clear sky
309,Coahuayana,MX,18.7333,-103.6833,75.04,93,1,2.55,clear sky
310,North Bend,US,43.4065,-124.2243,47.91,87,75,9.22,broken clouds
311,Koupela,BF,12.1794,-0.3517,72.39,25,7,8.05,clear sky
312,Amapa,BR,1.0,-52.0,73.78,90,100,3.24,overcast clouds
313,Ihosy,MG,-22.4,46.1167,67.5,84,18,3.42,few clouds
314,Porto Santo,PT,33.072,-16.3415,70.18,78,40,11.5,scattered clouds
315,Carolina,PR,18.3808,-65.9574,80.76,91,40,4.61,scattered clouds
316,Tevaitoa,PF,-16.7833,-151.5,80.08,70,25,1.59,scattered clouds
317,Palmares Do Sul,BR,-30.2578,-50.5097,64.87,84,43,8.08,scattered clouds
318,Buala,SB,-8.145,159.5921,83.62,73,83,4.25,light rain
319,Ambulu,ID,-8.345,113.6058,78.26,87,100,1.19,overcast clouds
320,Sao Joao Da Barra,BR,-21.6403,-41.0511,67.82,84,23,11.95,few clouds
321,Jalu,LY,29.0331,21.5482,62.94,32,0,12.03,clear sky
322,Tayoltita,MX,24.0833,-105.9333,59.41,61,1,5.23,clear sky
323,Hvide Sande,DK,56.0045,8.1294,42.93,69,6,30.53,clear sky
324,Alofi,NU,-19.0595,-169.9187,80.49,69,40,9.22,scattered clouds
325,Benghazi,LY,32.1167,20.0667,69.13,68,18,9.82,few clouds
326,Esna,EG,25.2934,32.554,61.54,50,23,8.21,few clouds
327,Linjiang,CN,41.8069,126.9078,45.3,60,37,1.3,scattered clouds
328,Mayo,US,38.8876,-76.5119,39.15,62,0,12.66,clear sky
329,Itoman,JP,26.1247,127.6694,82.78,83,20,8.05,few clouds
330,Hattingen,DE,51.4,7.1667,47.91,86,89,4.83,overcast clouds
331,Kahului,US,20.8947,-156.47,82.42,76,40,8.05,scattered clouds
332,Saint-Pierre,RE,-21.3393,55.4781,74.91,53,0,4.61,clear sky
333,Vanimo,PG,-2.6741,141.3028,84.81,67,100,4.05,overcast clouds
334,Jerome,US,42.7241,-114.5186,26.08,69,0,18.41,clear sky
335,Jambi,ID,-1.6,103.6167,87.67,61,100,3.13,overcast clouds
336,Camacupa,AO,-12.0167,17.4833,59.72,97,12,2.08,few clouds
337,Bari,IT,41.1177,16.8512,58.87,79,0,6.91,clear sky
338,Murashi,RU,59.3999,48.9615,12.9,84,6,5.46,clear sky
339,Vila Velha,BR,-20.3297,-40.2925,71.94,80,20,11.99,few clouds
340,Dongsheng,CN,39.8161,109.9776,37.8,87,100,15.79,overcast clouds
341,Rio Cuarto,AR,-33.1307,-64.3499,78.48,35,0,14.97,clear sky
342,Irbil,IQ,36.1926,44.0106,46.22,100,100,3.44,fog
343,Erdenet,MN,49.0333,104.0833,19.02,63,100,15.28,overcast clouds
344,Kathu,TH,7.9178,98.3332,85.82,99,100,6.2,overcast clouds
345,Shamsabad,IN,27.0167,78.1333,66.22,42,0,4.07,clear sky
346,Znamenskoye,RU,57.1281,73.8282,-8.54,100,16,2.66,few clouds
347,Lander,US,42.833,-108.7307,14.59,85,100,0.0,mist
348,Catamarca,AR,-28.4696,-65.7852,86.07,33,0,18.14,clear sky
349,Kozhva,RU,65.1073,57.0459,17.83,94,100,10.6,light snow
350,Sisimiut,GL,66.9395,-53.6735,18.27,89,100,10.98,overcast clouds
351,Manaure,CO,11.7751,-72.4445,79.38,83,86,11.1,overcast clouds
352,Andenes,NO,69.3143,16.1194,33.78,80,93,12.66,overcast clouds
353,Saint George,US,37.1041,-113.5841,42.94,45,0,1.99,clear sky
354,Zhoukou,CN,33.6333,114.6333,57.2,80,100,4.92,overcast clouds
355,Bathsheba,BB,13.2167,-59.5167,81.21,78,40,17.27,scattered clouds
356,Russkaya Polyana,UA,49.417,31.9201,29.19,82,100,7.34,overcast clouds
357,Labuhan,ID,-6.8844,112.2051,83.88,66,100,6.69,overcast clouds
358,Mali,GN,12.079,-12.2982,60.4,31,100,1.34,overcast clouds
359,Coos Bay,US,43.3665,-124.2179,47.98,87,75,9.22,broken clouds
360,Kochki,RU,54.3358,80.4806,9.57,96,73,4.52,broken clouds
361,Maceio,BR,-9.6658,-35.7353,72.84,100,20,5.75,few clouds
362,Rocha,UY,-34.4833,-54.3333,60.13,90,88,2.51,overcast clouds
363,Geraldton,AU,-28.7667,114.6,66.61,52,75,24.16,light rain
364,Namatanai,PG,-3.6667,152.4333,84.97,60,33,8.7,scattered clouds
365,Benemerito De Las Americas,MX,16.5167,-90.6439,69.33,99,8,1.86,light rain
366,Bodden Town,KY,19.2833,-81.25,82.4,77,20,11.5,few clouds
367,Brae,GB,60.3964,-1.353,44.91,68,100,34.0,overcast clouds
368,Martapura,ID,-3.4167,114.85,75.29,100,40,3.44,moderate rain
369,Manaus,BR,-3.1019,-60.025,84.69,74,0,3.44,clear sky
370,Alekseyevsk,RU,57.8406,108.3492,14.85,92,100,8.3,light snow
371,Harlingen,US,26.1906,-97.6961,60.71,95,100,10.36,mist
372,Port Hardy,CA,50.6996,-127.4199,42.98,65,0,6.91,clear sky
373,Hovd,MN,48.0056,91.6419,19.94,32,27,6.02,scattered clouds
374,Cururupu,BR,-1.8283,-44.8683,75.06,90,8,3.87,clear sky
375,Matay,EG,28.419,30.7792,60.94,62,0,5.84,clear sky
376,Ancud,CL,-41.8697,-73.8203,58.23,96,100,4.79,overcast clouds
377,Yulara,AU,-25.2406,130.9889,86.41,40,65,23.02,broken clouds
378,Inhambane,MZ,-23.865,35.3833,73.38,83,20,4.61,few clouds
379,Namibe,AO,-15.1961,12.1522,69.33,84,89,4.97,overcast clouds
380,Aljezur,PT,37.3191,-8.8033,62.17,76,86,13.85,overcast clouds
381,Ketchikan,US,55.3422,-131.6461,32.47,86,0,3.51,clear sky
382,Narsaq,GL,60.9167,-46.05,17.82,95,100,1.5,light snow
383,Merauke,ID,-8.4667,140.3333,86.54,69,95,1.34,overcast clouds
384,Bilibino,RU,68.0546,166.4372,-27.51,100,90,1.66,overcast clouds
385,Kemijarvi,FI,66.7131,27.4306,14.99,87,13,2.53,few clouds
386,Minsk,BY,53.9,27.5667,20.95,92,100,10.56,light snow
387,Senlis,FR,49.25,2.6667,47.14,91,73,11.27,broken clouds
388,Lagos,NG,6.5833,3.75,79.12,90,67,0.45,light rain
389,Gananoque,CA,44.3334,-76.1661,27.91,69,11,5.77,few clouds
390,Black River,JM,18.0264,-77.8487,77.7,86,95,4.23,overcast clouds
391,Saint-Georges,GD,12.0564,-61.7485,80.28,83,20,16.11,few clouds
392,Jega,NG,12.2175,4.3792,71.08,29,1,8.39,clear sky
393,Nuuk,GL,64.1835,-51.7216,22.87,79,100,11.99,overcast clouds
394,Coffs Harbour,AU,-30.3,153.1333,69.76,52,75,10.36,broken clouds
395,Zhifang,CN,30.35,114.3167,57.18,67,99,5.95,overcast clouds
396,Makow Mazowiecki,PL,52.8649,21.1005,29.89,88,94,8.05,overcast clouds
397,Tabou,CI,4.423,-7.3528,77.56,83,30,6.22,light rain
398,Prnjavor,BA,44.8703,17.6628,47.46,91,100,3.47,light rain
399,Mumford,GH,5.2618,-0.759,78.06,80,74,3.76,broken clouds
400,Port Hedland,AU,-20.3167,118.5667,84.25,39,1,18.41,clear sky
401,Kalemie,CD,-5.9475,29.1947,68.52,90,100,5.14,light rain
402,Port Macquarie,AU,-31.4333,152.9167,67.89,53,41,14.99,scattered clouds
403,Bogovarovo,RU,58.9785,47.0246,16.83,77,6,8.19,clear sky
404,Den Helder,NL,52.9599,4.7593,48.18,89,75,13.0,broken clouds
405,Toyooka,JP,35.5333,134.8333,62.65,55,20,2.3,few clouds
406,Najran,SA,17.4924,44.1277,56.05,36,0,0.63,clear sky
407,Mogadishu,SO,2.0371,45.3438,78.93,84,6,9.48,clear sky
408,Hanna,CA,51.6334,-111.9018,3.85,76,83,3.0,broken clouds
409,Beloha,MG,-25.1667,45.05,69.04,86,0,3.0,clear sky
410,Panzhihua,CN,26.5851,101.7128,62.83,46,0,0.22,clear sky
411,Codrington,AU,-38.2667,141.9667,67.8,59,40,9.69,scattered clouds
412,Tuatapere,NZ,-46.1333,167.6833,56.86,87,99,3.78,overcast clouds
413,Klaeng,TH,12.7797,101.6483,87.94,82,100,2.44,overcast clouds
414,Makurdi,NG,7.7411,8.5121,75.38,58,75,2.66,broken clouds
415,Hondo,JP,32.45,130.2,63.75,60,73,6.78,broken clouds
416,Pangkalanbuun,ID,-2.6833,111.6167,78.33,90,100,3.11,light rain
417,Ayios Nikolaos,GR,38.4167,23.65,64.9,72,100,2.84,overcast clouds
418,Harper,LR,4.375,-7.7169,77.31,83,34,5.99,light rain
419,Coquimbo,CL,-29.9533,-71.3436,56.93,100,0,2.3,clear sky
420,Tahta,EG,26.7693,31.5021,60.64,55,48,5.84,scattered clouds
421,Tianpeng,CN,30.9866,103.9393,55.87,66,100,2.42,overcast clouds
422,Wagar,SD,16.1525,36.2032,75.65,65,2,8.81,clear sky
423,Ko Samui,TH,9.5357,99.9357,84.11,79,20,2.3,few clouds
424,Laem Sing,TH,12.4816,102.0738,89.96,100,96,2.39,overcast clouds
425,Duminichi,RU,53.9345,35.1099,22.03,85,99,8.86,overcast clouds
426,Charters Towers,AU,-20.1,146.2667,87.93,43,89,15.88,overcast clouds
427,Petropavlovsk-Kamchatskiy,RU,53.0452,158.6483,25.39,46,0,2.24,clear sky
428,Vestmannaeyjar,IS,63.4427,-20.2734,45.28,87,100,18.48,overcast clouds
429,Guerrero Negro,MX,27.9769,-114.0611,63.36,63,5,6.13,clear sky
430,Sadiqabad,PK,28.3062,70.1307,70.5,28,3,5.01,clear sky
431,Khash,IR,28.2211,61.2158,57.9,52,94,3.8,overcast clouds
432,Chara,RU,56.9064,118.2631,14.16,78,76,1.07,broken clouds
433,San Pedro,PH,14.35,121.0167,86.36,81,75,9.22,light intensity shower rain
434,Lagoa,PT,39.05,-27.9833,60.35,56,42,6.67,scattered clouds
435,Pisco,PE,-13.7,-76.2167,63.01,82,0,11.5,clear sky
436,Severo-Yeniseyskiy,RU,60.3725,93.0408,-12.17,94,98,4.72,overcast clouds
437,Biloela,AU,-24.4167,150.5,85.64,23,16,7.38,few clouds
438,Raul Soares,BR,-20.1022,-42.4519,64.56,90,32,3.53,scattered clouds
439,Neiafu,TO,-18.65,-173.9833,81.28,78,40,6.91,scattered clouds
440,Palasbari,IN,26.1361,91.5486,73.45,94,20,2.3,mist
441,Kruisfontein,ZA,-34.0033,24.7314,60.89,72,100,1.32,overcast clouds
442,Bandarbeyla,SO,9.4942,50.8122,76.33,75,9,11.97,clear sky
443,Salimpur,IN,28.128,76.2766,65.97,29,0,3.4,clear sky
444,Lupeni,RO,45.3603,23.2383,42.15,84,93,1.36,overcast clouds
445,Nouakchott,MR,18.0858,-15.9785,75.13,34,0,11.97,clear sky
446,Salinopolis,BR,-0.6136,-47.3561,78.89,81,84,9.46,broken clouds
447,Aiquile,BO,-18.2041,-65.1807,59.29,64,12,2.19,few clouds
448,Camocim,BR,-2.9022,-40.8411,78.49,78,69,10.87,broken clouds
449,Laramie,US,41.3114,-105.5911,10.53,84,100,5.75,mist
450,North Adams,US,42.7009,-73.1087,33.33,62,100,10.36,overcast clouds
451,Turbiv,UA,49.3479,28.7212,27.32,97,100,3.04,light snow
452,San Rafael,AR,-34.6177,-68.3301,73.09,50,5,13.8,clear sky
453,Makakilo City,US,21.3469,-158.0858,80.92,69,0,11.5,clear sky
454,Mitsamiouli,KM,-11.3847,43.2844,75.49,83,20,9.22,few clouds
455,Sibiti,CG,-3.6819,13.3499,66.72,99,98,1.05,overcast clouds
456,Miles City,US,46.4083,-105.8406,11.37,72,100,19.57,overcast clouds
457,Lompoc,US,34.6391,-120.4579,53.74,89,0,1.01,clear sky
458,Sinfra,CI,6.6167,-5.9167,65.98,73,4,1.1,clear sky
459,Cay,TR,38.5917,31.0286,48.27,86,98,6.08,overcast clouds
460,Saint-Michel-Des-Saints,CA,46.6834,-73.9159,18.93,85,98,8.46,overcast clouds
461,Esperanza,DO,19.5847,-70.9849,73.98,92,8,1.01,clear sky
462,Nishihara,JP,26.1842,127.7558,82.06,83,75,8.05,broken clouds
463,Lahat,ID,-3.8,103.5333,88.74,54,100,3.2,overcast clouds
464,Palmer,US,42.1584,-72.3287,35.46,60,40,8.05,scattered clouds
465,Vao,NC,-22.6667,167.4833,74.93,79,71,17.02,broken clouds
466,Hammerfest,NO,70.6634,23.6821,34.25,75,61,5.75,broken clouds
467,Diffa,NE,13.3154,12.6113,68.2,29,4,7.9,clear sky
468,Esso,RU,55.9333,158.7,11.21,92,63,3.8,broken clouds
469,Wanning,CN,18.8003,110.3967,81.45,75,14,10.78,few clouds
470,Pervomayskiy,RU,53.2485,40.2871,27.1,95,100,9.06,overcast clouds
471,Uberlandia,BR,-18.9186,-48.2772,72.61,64,0,8.05,clear sky
472,Ferkessedougou,CI,9.6,-5.2,67.3,33,22,1.63,few clouds
473,Paramonga,PE,-10.6667,-77.8333,63.59,88,85,6.87,overcast clouds
474,Acapulco,MX,16.8634,-99.8901,80.42,78,20,5.75,few clouds
475,Zonguldak,TR,41.25,31.8333,53.83,70,100,4.68,overcast clouds
476,Homer,US,59.6425,-151.5483,38.8,91,0,5.01,clear sky
477,Kichmengskiy Gorodok,RU,59.9816,45.7854,13.42,89,8,5.7,clear sky
478,Staropyshminsk,RU,56.9387,60.903,1.36,96,18,5.39,few clouds
479,Eastlake,US,41.6539,-81.4504,32.04,72,100,18.41,overcast clouds
480,Magdagachi,RU,53.45,125.8,20.97,77,51,3.78,broken clouds
481,Warrnambool,AU,-38.3833,142.4833,63.55,66,27,5.95,scattered clouds
482,Edson,CA,53.5835,-116.4356,15.94,62,75,4.61,broken clouds
483,Altay,CN,47.8667,88.1167,18.86,57,9,3.11,clear sky
484,College,US,64.8569,-147.8028,15.58,87,20,0.0,few clouds
485,Egvekinot,RU,66.3167,-179.1667,19.11,98,100,4.18,light snow
486,Sibolga,ID,1.7427,98.7792,81.43,77,100,4.03,overcast clouds
487,Taganak,PH,6.0833,118.3,89.74,79,56,2.95,broken clouds
488,Kano,NG,12.0001,8.5167,57.09,77,0,0.0,clear sky
489,Saint-Joseph,RE,-21.3667,55.6167,73.78,62,15,3.58,few clouds
490,Agadez,NE,19.75,10.25,60.04,22,14,8.81,few clouds
491,Sangar,RU,63.9242,127.4739,-5.94,97,100,10.51,light snow
492,Bandar-E Lengeh,IR,26.5579,54.8807,71.71,83,0,6.91,clear sky
493,Bonthe,SL,7.5264,-12.505,77.14,85,74,2.15,broken clouds
494,Sandata,RU,46.2708,41.7583,53.71,69,100,18.95,light rain
495,Jatai,BR,-17.8814,-51.7144,69.58,38,0,0.49,clear sky
496,Porto Novo,BJ,6.4965,2.6036,80.42,84,33,2.68,light rain
497,Lakselv,NO,70.0513,24.9718,24.62,93,33,17.27,scattered clouds
498,Morehead,US,37.2711,-87.1764,29.79,84,0,0.0,clear sky
499,Whitianga,NZ,-36.8333,175.7,64.36,93,71,11.68,light rain
500,Half Moon Bay,US,37.4636,-122.4286,57.11,67,0,14.97,clear sky
501,Grand Gaube,MU,-20.0064,57.6608,76.37,53,0,1.99,clear sky
502,Huilong,CN,31.8111,121.655,64.92,76,67,13.8,broken clouds
503,Ambovombe,MG,-25.1667,46.0833,73.65,76,93,3.56,overcast clouds
504,Gorlice,PL,49.6556,21.1604,34.97,97,99,4.52,snow
505,Oktyabrskiy,RU,54.4815,53.471,27.43,95,100,13.35,light snow
506,Bacolod,PH,10.6667,122.95,79.36,86,99,9.57,light rain
507,Issenye,TZ,-2.0,34.3333,64.45,90,99,2.68,overcast clouds
508,Verkhoyansk,RU,67.5447,133.385,-18.02,86,100,2.35,overcast clouds
509,Nyagan,RU,62.1406,65.3936,10.99,70,100,14.27,overcast clouds
510,Calamar,CO,10.2511,-74.9146,76.03,94,99,5.12,overcast clouds
511,Shingu,JP,33.7333,135.9833,62.53,53,0,4.63,clear sky
512,Conakry,GN,9.538,-13.6773,81.3,66,96,0.98,overcast clouds
513,Pinotepa Nacional,MX,16.3167,-98.0167,72.79,87,51,2.44,broken clouds
514,Santa Luzia,BR,-19.7697,-43.8514,68.9,64,0,5.75,clear sky
515,Kutum,SD,14.2,24.6667,57.63,34,0,5.5,clear sky
516,Labrea,BR,-7.2586,-64.7981,72.77,100,100,2.55,moderate rain
517,Cochrane,CA,51.1834,-114.4687,18.64,38,99,6.15,overcast clouds
518,Mount Gambier,AU,-37.8333,140.7667,73.09,41,100,9.26,overcast clouds
519,Yakeshi,CN,49.2833,120.7333,27.68,75,28,3.58,scattered clouds
520,Irece,BR,-11.3042,-41.8558,70.84,80,100,11.1,light rain
521,Tilichiki,RU,60.4667,166.1,3.76,95,31,7.05,scattered clouds
522,Arica,CL,-18.475,-70.3042,66.43,72,100,8.05,overcast clouds
523,Cascais,PT,38.6979,-9.4215,59.94,99,67,18.99,broken clouds
524,Semey,KZ,50.4111,80.2275,10.62,79,0,2.24,clear sky
525,Tautira,PF,-17.7333,-149.15,76.3,87,71,11.1,light rain
526,Moose Factory,CA,51.2585,-80.6094,17.6,86,100,6.91,overcast clouds
527,Leninskoye,KZ,41.7589,69.3864,46.8,50,100,5.12,overcast clouds
528,Wairoa,NZ,-39.0333,177.3667,67.55,87,94,5.01,overcast clouds
529,Marana,US,32.4367,-111.2254,60.06,31,100,4.61,overcast clouds
530,Karpogory,RU,64.0019,44.4451,17.92,91,100,7.16,overcast clouds
531,Allentown,US,40.6084,-75.4902,35.89,72,40,8.05,scattered clouds
532,Bayburt,TR,40.2589,40.2278,36.05,79,100,3.44,light rain
533,Dudinka,RU,69.4058,86.1778,1.62,92,100,28.25,light snow
534,Anchorage,US,61.2181,-149.9003,31.59,82,0,5.75,clear sky
535,Seoul,KR,37.5683,126.9778,60.37,44,0,2.3,clear sky
536,Fairview,US,40.8126,-73.999,39.42,61,75,10.36,broken clouds
537,Houma,US,29.5958,-90.7195,42.8,82,0,0.0,clear sky
538,Gao,ML,16.6362,1.637,66.07,17,3,11.25,clear sky
539,Sao Gabriel Da Cachoeira,BR,-0.1303,-67.0892,71.92,99,100,2.17,overcast clouds
540,Saint Anthony,US,45.0205,-93.218,24.75,81,100,18.41,overcast clouds
541,Panaba,MX,21.2833,-88.2667,73.06,90,49,9.95,light rain
542,Marystown,CA,47.1666,-55.1483,41.25,74,97,23.87,overcast clouds
543,Tingloy,PH,13.6609,120.8711,81.7,81,97,16.75,overcast clouds
544,Walvis Bay,NA,-22.9575,14.5053,59.09,94,99,9.22,overcast clouds
545,Debre Birhan,ET,9.6833,39.5333,45.86,65,0,4.7,clear sky
546,Price,US,39.5994,-110.8107,29.12,50,0,4.61,clear sky
547,Murray Bridge,AU,-35.1167,139.2667,72.12,37,100,12.41,overcast clouds
548,Monterotondo,IT,42.0525,12.6187,62.1,90,84,4.0,broken clouds
549,Moussoro,TD,13.6408,16.4901,70.97,22,1,10.65,clear sky
550,The Valley,AI,18.217,-63.0578,81.1,73,7,20.0,clear sky
551,Tateyama,JP,34.9833,139.8667,60.73,63,87,7.87,overcast clouds
552,Corn Island,NI,12.1694,-83.0418,82.8,77,100,15.28,overcast clouds
553,Cassilandia,BR,-19.1133,-51.7342,71.33,39,0,5.06,clear sky
554,Juneau,US,58.3019,-134.4197,34.21,100,40,0.0,fog
555,Yuxia,CN,34.0615,108.6291,54.21,68,100,4.9,overcast clouds
556,Lom Sak,TH,16.7798,101.2422,87.69,66,20,2.3,few clouds
557,Houston,US,29.7633,-95.3633,54.34,63,100,4.61,overcast clouds
558,Nanae,JP,41.8833,140.6833,48.43,71,75,2.3,broken clouds
559,Batagay,RU,67.6333,134.6333,-19.19,87,100,3.67,overcast clouds
560,Mahanje,TZ,-9.9333,35.3333,66.07,82,4,2.8,clear sky
561,Malanje,AO,-9.5402,16.341,61.29,91,100,1.57,overcast clouds
562,Lar,IN,26.2039,83.9717,72.3,35,0,4.0,clear sky
563,Mtimbira,TZ,-8.7833,36.35,72.79,86,66,0.67,broken clouds
564,Shahdadkot,PK,27.8477,67.9055,74.43,35,0,3.6,clear sky
565,Octeville,FR,49.6261,-1.6435,48.69,87,0,14.97,clear sky
566,Ciudad Bolivar,VE,8.1222,-63.5497,77.0,84,100,7.52,overcast clouds
567,Pokhara,NP,28.2333,83.9833,66.61,59,4,4.18,clear sky
568,Talcahuano,CL,-36.7167,-73.1167,60.48,82,0,12.66,clear sky
569,Shihezi,CN,44.3,86.0333,31.62,68,57,4.07,broken clouds
570,Sioux Lookout,CA,50.1001,-91.917,15.87,73,100,8.05,overcast clouds
571,Fastovetskaya,RU,45.9189,40.1589,52.66,75,100,29.46,light rain
572,Tonj,SS,7.2737,28.6822,72.64,41,18,1.66,few clouds
573,Tomatlan,MX,19.9333,-105.25,69.98,87,0,2.86,clear sky
574,Belaya Gora,RU,68.5333,146.4167,-17.91,97,100,4.18,overcast clouds
575,Riyadh,SA,24.6877,46.7219,60.94,27,73,4.72,broken clouds
576,Ust-Karsk,RU,52.7011,118.8077,27.28,69,100,2.06,overcast clouds
577,La Ronge,CA,55.1001,-105.2842,12.45,67,75,9.22,broken clouds
578,Hit,IQ,33.6416,42.8251,59.74,60,0,5.37,clear sky
579,Margate,GB,51.3813,1.3862,47.3,87,95,4.0,light rain
580,Gongzhuling,CN,43.5008,124.8198,39.34,61,4,3.22,clear sky
581,Gigmoto,PH,13.7796,124.39,81.09,87,94,12.26,overcast clouds
582,Vaitape,PF,-16.5167,-151.75,79.0,77,33,5.61,light rain
583,Chulman,RU,56.8479,124.9104,13.14,90,97,2.77,overcast clouds
584,Adre,TD,13.4667,22.2,63.5,31,6,10.07,clear sky
585,Dubbo,AU,-32.25,148.6167,71.73,35,40,5.75,scattered clouds
586,Hamilton,US,39.1834,-84.5333,30.97,74,100,8.05,overcast clouds
587,Talnakh,RU,69.4865,88.3972,1.2,95,100,27.18,light snow
588,Cabedelo,BR,-6.9811,-34.8339,77.67,84,39,8.7,scattered clouds
589,Bilma,NE,18.6853,12.9164,64.6,25,21,6.73,few clouds
590,Goderich,CA,43.7501,-81.7165,36.91,80,100,25.32,overcast clouds
591,Vila Franca Do Campo,PT,37.7167,-25.4333,59.2,74,21,1.39,few clouds
592,Yelizovo,RU,53.1873,158.3805,26.74,45,0,2.24,clear sky
593,Fukue,JP,32.6881,128.8419,66.56,52,75,10.36,broken clouds
594,Ramat Yishay,IL,32.7006,35.1797,60.21,83,0,3.38,clear sky
595,San Quintin,MX,30.4833,-115.95,60.26,46,92,4.85,overcast clouds
596,Tara,RU,56.8944,74.371,-4.52,97,7,3.62,clear sky
597,Oriximina,BR,-1.7656,-55.8661,78.48,60,56,2.62,broken clouds
598,Kalmunai,LK,7.4167,81.8167,79.21,73,100,13.09,overcast clouds
599,Broome,US,42.2506,-75.833,31.19,82,100,5.75,overcast clouds
600,Purificacion,CO,3.8587,-74.9313,74.39,87,100,1.57,overcast clouds
601,Oytal,KZ,42.9057,73.2697,38.32,78,100,3.15,overcast clouds
602,Odweyne,SO,9.4092,45.064,66.94,39,0,3.22,clear sky
603,Sampit,ID,-2.5333,112.95,77.14,92,100,3.11,overcast clouds
604,Fallon,US,39.4735,-118.7774,36.91,55,75,5.75,broken clouds
605,Sakaiminato,JP,35.55,133.2333,62.58,48,20,3.44,few clouds
606,Asau,RO,46.4333,26.4,33.28,90,96,3.06,overcast clouds
607,Nabire,ID,-3.3667,135.4833,85.19,68,100,5.32,overcast clouds
608,Zanjan,IR,36.6736,48.4787,35.29,87,20,4.61,few clouds
609,Nara,JP,34.6851,135.8049,63.91,35,0,3.6,clear sky
610,Mazagao,BR,-0.115,-51.2894,78.85,88,100,5.19,overcast clouds
611,Sakakah,SA,29.9697,40.2064,56.77,61,0,5.28,clear sky
612,Broken Hill,AU,-31.95,141.4333,75.76,22,75,10.56,broken clouds
613,Kota,IN,25.1833,75.8333,70.74,28,0,2.57,clear sky
614,Carutapera,BR,-1.195,-46.02,74.95,94,8,5.46,clear sky
615,Fayaoue,NC,-20.65,166.5333,80.24,73,46,4.25,scattered clouds
616,Khandyga,RU,62.6667,135.6,-9.6,84,99,2.44,overcast clouds
617,Kimbe,PG,-5.5502,150.1429,85.53,72,100,5.61,light rain
618,Kure,JP,34.2333,132.5667,65.14,53,0,5.44,clear sky
619,Zeya,RU,53.75,127.2667,22.48,75,23,2.19,few clouds
620,Senador Jose Porfirio,BR,-2.5908,-51.9542,78.67,71,70,4.14,broken clouds
621,Selty,RU,57.3132,52.1345,16.79,79,67,8.72,broken clouds
622,Kurilsk,RU,45.2333,147.8833,38.43,72,98,15.7,overcast clouds
623,Muros,ES,42.7762,-9.0603,47.14,96,80,8.1,broken clouds
624,San Vicente,AR,-26.6167,-54.1333,59.14,70,0,3.62,clear sky
625,Rawson,AR,-43.3002,-65.1023,64.18,75,97,5.91,overcast clouds
626,Stornoway,GB,58.2093,-6.3865,48.16,85,100,13.8,light rain
627,Thunder Bay,CA,48.4001,-89.3168,17.58,92,75,4.61,broken clouds
628,Moron,AR,-34.6534,-58.6198,74.97,63,72,12.57,broken clouds
629,Kenai,US,60.5544,-151.2583,32.14,77,0,9.22,clear sky
630,Saint-Augustin,CA,51.226,-58.6502,27.73,94,100,17.11,snow
631,Ustyuzhna,RU,58.8394,36.4321,16.86,81,29,10.31,scattered clouds
632,Soyo,AO,-6.1349,12.3689,75.74,76,69,1.83,broken clouds
633,West Wendover,US,40.7391,-114.0733,29.41,80,0,0.0,clear sky
634,Auki,SB,-8.7676,160.7034,81.36,83,98,5.3,overcast clouds
635,Ribeira Brava,PT,32.65,-17.0667,68.72,80,36,8.81,light rain
636,La Asuncion,VE,11.0333,-63.8628,78.53,94,70,11.5,light rain
637,Bumba,CD,2.1833,22.4667,70.07,91,99,3.27,overcast clouds
638,Hami,CN,42.8,93.45,40.26,55,64,2.33,broken clouds
639,Sur,OM,22.5667,59.5289,77.13,60,1,7.31,clear sky
640,Novyy Urgal,RU,51.0736,132.5642,22.75,68,86,0.58,overcast clouds
641,Usinsk,RU,65.9939,57.5281,26.22,96,100,18.81,light snow
642,Byron Bay,AU,-28.65,153.6167,73.94,54,18,8.16,few clouds
643,Castanos,MX,26.7833,-101.4167,49.35,50,0,0.92,clear sky
644,Evensk,RU,61.95,159.2333,10.06,96,100,11.86,snow
645,Manbij,SY,36.5281,37.9549,56.05,78,99,4.56,overcast clouds
646,Vokhtoga,RU,58.8147,41.0461,18.27,81,14,10.78,few clouds
647,Uyuni,BO,-20.4597,-66.825,47.25,70,0,11.34,clear sky
648,Rantepao,ID,-2.9701,119.8978,81.07,67,98,3.76,overcast clouds
649,Cap Malheureux,MU,-19.9842,57.6142,76.46,52,1,3.0,clear sky
650,Antalaha,MG,-14.9003,50.2788,76.06,81,94,0.94,light rain
651,Bowmore,US,34.9421,-79.3031,39.88,81,0,0.0,clear sky
652,Pingliang,CN,35.5392,106.6861,47.59,25,100,10.65,overcast clouds
653,Oldenburg,DE,53.1667,8.2,40.1,97,100,4.0,light rain
654,Santa Cruz,BO,-17.8,-63.1667,74.66,69,2,6.91,clear sky
655,Severodvinsk,RU,64.5635,39.8302,23.11,92,100,6.78,overcast clouds
656,Biltine,TD,14.5333,20.9167,67.55,28,1,8.79,clear sky
657,Oistins,BB,13.0667,-59.5333,80.69,78,40,17.27,scattered clouds
658,Leshan,CN,29.5623,103.7639,61.68,68,99,2.98,overcast clouds
659,Dali,CN,25.7,100.1833,62.04,30,0,1.57,clear sky
660,Changping,CN,40.2186,116.2197,51.44,38,100,4.23,overcast clouds
661,Uray,RU,60.1247,64.7758,3.02,84,10,9.53,clear sky
662,Meulaboh,ID,4.1363,96.1285,81.57,72,96,3.38,overcast clouds
663,Santa Rosa,PH,14.3122,121.1114,87.12,84,99,14.81,overcast clouds
664,Faya,SA,18.3851,42.4509,53.71,67,0,2.15,clear sky
665,Oussouye,SN,12.485,-16.5469,77.09,83,62,6.06,broken clouds
666,Cao Bang,VN,22.6667,106.25,74.68,89,100,2.71,overcast clouds
667,Frankfort,ZA,-27.2667,28.4833,63.36,49,18,2.82,few clouds
668,Puerto Carreno,CO,6.189,-67.4859,75.67,88,100,1.7,light rain
669,Santiago,CL,-33.4569,-70.6483,71.85,54,0,8.05,clear sky
670,Dzhebariki-Khaya,RU,62.2167,135.8,-10.95,85,94,1.54,overcast clouds
671,Safaga,EG,26.7292,33.9365,69.37,44,100,12.84,overcast clouds
672,Komsomolskiy,UZ,40.4272,71.7189,39.92,81,100,4.61,overcast clouds
673,Gat,IL,31.61,34.7642,59.4,66,0,3.4,clear sky
674,Taltal,CL,-25.4,-70.4833,62.87,89,54,2.51,broken clouds
675,San Carlos De Bariloche,AR,-41.1456,-71.3082,56.95,62,75,9.22,light rain
676,Mollendo,PE,-17.0231,-72.0147,64.22,85,98,5.12,overcast clouds
677,Sao Miguel Do Araguaia,BR,-13.275,-50.1628,76.8,64,15,4.21,few clouds
678,Aasiaat,GL,68.7098,-52.8699,13.3,96,100,5.01,overcast clouds
679,Kankan,GN,10.3854,-9.3057,68.83,34,100,2.75,overcast clouds
680,Abnub,EG,27.2696,31.1511,57.42,59,0,3.0,clear sky
681,Isangel,VU,-19.55,169.2667,87.91,66,75,4.61,broken clouds
